[
  {
    "name": "Masjid Baitussalam",
    "address": "Masjid Baitussalam\n4,9(41)\nMasjid ·  · W7PC+RF7",
    "latitude": -2.0629691,
    "longitude": 102.271186
  },
  {
    "name": "MASJID RAYA AL ISTIQOMAH",
    "address": "MASJID RAYA AL ISTIQOMAH\n4,6(117)\nMasjid · W7FG+W22",
    "latitude": -2.0752285,
    "longitude": 102.2750307
  },
  {
    "name": "Masjid AL KAUTSAR",
    "address": "Masjid AL KAUTSAR\n4,7(11)\nMasjid · W7P8+524",
    "latitude": -2.0646147,
    "longitude": 102.2650666
  },
  {
    "name": "Masjid Al-Istiqamah",
    "address": "Masjid Al-Istiqamah\n4,9(9)\nMasjid ·  · W7P9+57M",
    "latitude": -2.0645349,
    "longitude": 102.2681585
  },
  {
    "name": "MASJID AL-MUHAJIRIN",
    "address": "MASJID AL-MUHAJIRIN\n4,7(164)\nMasjid ·  · W7WH+J44",
    "latitude": -2.0534946,
    "longitude": 102.2778225
  },
  {
    "name": "Masjid Attanwir Muhammadiyah Merangin",
    "address": "Masjid Attanwir Muhammadiyah Merangin\n5,0(11)\nMasjid · W7HC+JC7",
    "latitude": -2.0709556,
    "longitude": 102.2710596
  },
  {
    "name": "Masjid Agung Baitul Ma'mur",
    "address": "Masjid Agung Baitul Ma'mur\n4,7(226)\nMasjid · W7FP+GV8",
    "latitude": -2.0762201,
    "longitude": 102.2871914
  },
  {
    "name": "Masjid/Mushollah",
    "address": "Masjid/Mushollah\n4,6(5)\nMasjid · W7HG+CCQ",
    "latitude": -2.0714052,
    "longitude": 102.2760974
  },
  {
    "name": "Masjid Agung Al Jihad",
    "address": "Masjid Agung Al Jihad\n4,7(16)\nMasjid ·  · W797+QX5",
    "latitude": -2.0806235,
    "longitude": 102.264993
  },
  {
    "name": "Masjid Al Mukhlisin",
    "address": "Masjid Al Mukhlisin\n4,5(11)\nTempat Ibadah · W7QC+X9Q",
    "latitude": -2.0600333,
    "longitude": 102.2709717
  },
  {
    "name": "Mushalla Al-Abrar",
    "address": "Mushalla Al-Abrar\n4,5(4)\nMasjid · W7Q8+2GH",
    "latitude": -2.0624438,
    "longitude": 102.2663587
  },
  {
    "name": "Masjid At-Taubah Polres Merangin",
    "address": "Masjid At-Taubah Polres Merangin\n5,0(2)\nMasjid · W7QC+7W2",
    "latitude": -2.0618636,
    "longitude": 102.2722673
  },
  {
    "name": "Masjid/Mushollah",
    "address": "Masjid/Mushollah\nTidak ada ulasan\nMasjid · W7H9+JRH",
    "latitude": -2.0709449,
    "longitude": 102.2695984
  },
  {
    "name": "Masjid Al - Amin",
    "address": "Masjid Al - Amin\n5,0(5)\nMasjid · W7WF+8XF, Jl. Melati\nBuka 24 jam",
    "latitude": -2.0541933,
    "longitude": 102.2749116
  },
  {
    "name": "Masjid/Mushollah Riyasah Bangko",
    "address": "Masjid/Mushollah Riyasah Bangko\n5,0(1)\nMasjid · W7R8+QMP",
    "latitude": -2.058039,
    "longitude": 102.2666985
  },
  {
    "name": "Masjid An-nur",
    "address": "Masjid An-nur\n4,6(16)\nMasjid · W7R9+HQC",
    "latitude": -2.0585658,
    "longitude": 102.2693873
  },
  {
    "name": "Mesjid Nurul Falah",
    "address": "Mesjid Nurul Falah\n4,7(6)\nMasjid · W7JC+HR3",
    "latitude": -2.0686246,
    "longitude": 102.2720484
  },
  {
    "name": "MASJID BAITURRAHMAN",
    "address": "MASJID BAITURRAHMAN\n5,0(2)\nMasjid · W7G9+34W",
    "latitude": -2.0747702,
    "longitude": 102.2678423
  },
  {
    "name": "Masjid Jami' Lingkungan Bangko Rendah",
    "address": "Masjid Jami' Lingkungan Bangko Rendah\nTidak ada ulasan\nMasjid · W7GJ+PR6",
    "latitude": -2.0732194,
    "longitude": 102.2820203
  },
  {
    "name": "Mesjid Baiturrahmah, Halaqah Bangko",
    "address": "Mesjid Baiturrahmah, Halaqah Bangko\n5,0(4)\nTempat Ibadah · W7JG+86Q",
    "latitude": -2.069167,
    "longitude": 102.275614
  },
  {
    "name": "Masjid Baitul Makmur (LDII)",
    "address": "Masjid Baitul Makmur (LDII)\n4,8(24)\nMasjid · W7WJ+7G5",
    "latitude": -2.0543742,
    "longitude": 102.2813731
  },
  {
    "name": "Masjid Besar Agung Al-Hidayah ( Masjid Pancasila )",
    "address": "Masjid Besar Agung Al-Hidayah ( Masjid Pancasila )\n4,9(7)\nMasjid · W7QG+VQC, Jl. Amal Bakti, RT.06/RW.04",
    "latitude": -2.0603083,
    "longitude": 102.2768978
  },
  {
    "name": "Mesjid Baiturrahmah, Halaqah Bangko",
    "address": "Mesjid Baiturrahmah, Halaqah Bangko\n5,0(4)\nTempat Ibadah · W7JG+86Q",
    "latitude": -2.069167,
    "longitude": 102.275614
  },
  {
    "name": "Masjid Bungo 1",
    "address": "Masjid Bungo 1\n5,0(1)\nTempat Religius · W7QM+Q4F",
    "latitude": -2.0605614,
    "longitude": 102.2828034
  },
  {
    "name": "Masjid An Nur Bangko Tinggi",
    "address": "Masjid An Nur Bangko Tinggi\n4,4(9)\nMasjid ·  · W7JJ+2X2 masjid annur",
    "latitude": -2.0699752,
    "longitude": 102.2823785
  },
  {
    "name": "Masjid RIYADHUL UMMAH",
    "address": "Masjid RIYADHUL UMMAH\n4,8(5)\nMasjid · W7PG+7V3",
    "latitude": -2.0643628,
    "longitude": 102.2771855
  },
  {
    "name": "Mushalla Baiturrahim",
    "address": "Mushalla Baiturrahim\n5,0(1)\nMasjid · W7HF+3CW",
    "latitude": -2.0722713,
    "longitude": 102.2735858
  },
  {
    "name": "Masjid Baiturrahmah MARKAZ DAKWAH ALAMI SHURO",
    "address": "Masjid Baiturrahmah MARKAZ DAKWAH ALAMI SHURO\n5,0(2)\nMasjid · W7JG+858",
    "latitude": -2.0692026,
    "longitude": 102.2754377
  },
  {
    "name": "Masjid Al Anshor IBRD",
    "address": "Masjid Al Anshor IBRD\n5,0(2)\nMasjid · W7VC+MR8",
    "latitude": -2.0558391,
    "longitude": 102.2720745
  },
  {
    "name": "Masjid Baiturrahaman",
    "address": "Masjid Baiturrahaman\n2,5(2)\nMasjid · W7GF+JW5, Desa Danau, Bangko",
    "latitude": -2.07348,
    "longitude": 102.274861
  },
  {
    "name": "Masjid BAIATURRIDHWAN",
    "address": "Masjid BAIATURRIDHWAN\n4,8(4)\nMasjid · W7QM+P3X, Unnamed Rd\nBuka 24 jam",
    "latitude": -2.0606331,
    "longitude": 102.2827486
  },
  {
    "name": "Belakang BNI Bangko Dekat Masjid Annur",
    "address": "Belakang BNI Bangko Dekat Masjid Annur\n3,8(19)\nMasjid ·  · W7RJ+H4V",
    "latitude": -2.0585232,
    "longitude": 102.2802881
  },
  {
    "name": "Masjid Al-Hidayah",
    "address": "Masjid Al-Hidayah\nTidak ada ulasan\nMasjid · W7HF+P3V",
    "latitude": -2.0706416,
    "longitude": 102.2726846
  },
  {
    "name": "Masjid Assa'addah",
    "address": "Masjid Assa'addah\n5,0(2)\nMasjid · W7CH+8GX",
    "latitude": -2.0791478,
    "longitude": 102.2788452
  },
  {
    "name": "Masjid AZ ZAHRA",
    "address": "Masjid AZ ZAHRA\nTidak ada ulasan\nMasjid · Jl. Kesehatan No.16",
    "latitude": -2.065376,
    "longitude": 102.2747949
  },
  {
    "name": "Masjid Syuhada (Sei Mas)",
    "address": "Masjid Syuhada (Sei Mas)\n5,0(2)\nMasjid · Sei mas, RT.07/RW.04\nBuka · Tutup pukul 17.00",
    "latitude": -2.0807804,
    "longitude": 102.2709108
  },
  {
    "name": "Masjid Al Anshor",
    "address": "Masjid Al Anshor\nTidak ada ulasan\nMasjid · W7GF+JW5 Pulau Kadis",
    "latitude": -2.07348,
    "longitude": 102.274861
  },
  {
    "name": "Masjid Jabilul Muhtadin",
    "address": "Masjid Jabilul Muhtadin\nTidak ada ulasan\nMasjid · W7GF+JW5, Tran Nalo Gedang, Bangko",
    "latitude": -2.07348,
    "longitude": 102.274861
  },
  {
    "name": "Masjid/Mushollah",
    "address": "Masjid/Mushollah\n5,0(1)\nMasjid · W7GP+XX9, Unnamed Road",
    "latitude": -2.0725903,
    "longitude": 102.2874954
  },
  {
    "name": "Masjid Nurul Huda",
    "address": "Masjid Nurul Huda\n5,0(3)\nMasjid · Jl. Kapten Pattimura No.14",
    "latitude": -2.0621961,
    "longitude": 102.2801359
  },
  {
    "name": "AL Furqon",
    "address": "AL Furqon\n4,5(4)\nMasjid · dekat Unnamed Road, 37313",
    "latitude": -2.0506559,
    "longitude": 102.2758013
  },
  {
    "name": "Musholla Al-istiqomah",
    "address": "Musholla Al-istiqomah\n5,0(2)\nMasjid · W7C8+QX8",
    "latitude": -2.0780909,
    "longitude": 102.2674491
  },
  {
    "name": "Masjid Al Hikmah",
    "address": "Masjid Al Hikmah\n4,6(8)\nMasjid · W7MX+G6X",
    "latitude": -2.066127,
    "longitude": 102.2981115
  },
  {
    "name": "Masjid Baitul Muttaqin",
    "address": "Masjid Baitul Muttaqin\n5,0(2)\nRumah Ibadat Bahá'í · W7QQ+WJ4",
    "latitude": -2.0602417,
    "longitude": 102.2890706
  },
  {
    "name": "Masjid Baitul Qudus",
    "address": "Masjid Baitul Qudus\nTidak ada ulasan\nMasjid · W7GG+H2C",
    "latitude": -2.0735579,
    "longitude": 102.275002
  },
  {
    "name": "Masjid Al Jamil",
    "address": "Masjid Al Jamil\nTidak ada ulasan\nMasjid · W7GF+JW5",
    "latitude": -2.07348,
    "longitude": 102.274861
  },
  {
    "name": "Masjid Baitil Muttaqin",
    "address": "Masjid Baitil Muttaqin\nTidak ada ulasan\nMasjid · W7GG+H2C",
    "latitude": -2.0735579,
    "longitude": 102.275002
  },
  {
    "name": "Masjid Lailatul Qodar",
    "address": "Masjid Lailatul Qodar\nTidak ada ulasan\nMasjid · W7GF+MWF, Buku Tanjung, Bangko",
    "latitude": -2.0733242,
    "longitude": 102.2747849
  },
  {
    "name": "Masjid Asy Syuhadak",
    "address": "Masjid Asy Syuhadak\nTidak ada ulasan\nMasjid · W7GF+MVM, Kampaung Baru, Bangko",
    "latitude": -2.073281,
    "longitude": 102.274684
  },
  {
    "name": "Masjid Nurul Iman",
    "address": "Masjid Nurul Iman\n3,7(3)\nMasjid · W7GP+XX9, Unnamed Road\nBuka 24 jam",
    "latitude": -2.0725875,
    "longitude": 102.2874849
  }
]