[
  {
    "name": "Rumah Makan Anugrah",
    "address": "Rumah Makan Anugrah\n4,8\nRestoran ·  · Ps. BAWAH\nBuka · Tutup pukul 17.00",
    "latitude": -2.0746029,
    "longitude": 102.2749975
  },
  {
    "name": "The New Mlangun",
    "address": "The New Mlangun\n4,0\nRestoran · W7FG+RQW, Jl. H. Makalam\nBuka · Tutup pukul 23.30",
    "latitude": -2.0753864,
    "longitude": 102.2769538
  },
  {
    "name": "RM. Pincuran Bayang",
    "address": "RM. Pincuran Bayang\n4,5\nRestoran Indonesia · Jl. H. M. Haris , belakang pasar rakyat\nBuka · Tutup pukul 22.00",
    "latitude": -2.0700525,
    "longitude": 102.272103
  },
  {
    "name": "RM. Monggo (Masakan Nusantara)",
    "address": "RM. Monggo (Masakan Nusantara)\n4,1\nRumah Makan ·  · W7JF+GFF\nBuka · Tutup pukul 23.00",
    "latitude": -2.0686782,
    "longitude": 102.2736661
  },
  {
    "name": "RM Dendeng Batokok Beras Payo Kerinci 1",
    "address": "RM Dendeng Batokok Beras Payo Kerinci 1\n4,5\nRestoran Indonesia ·  · JL. Simpang Tinggi\nBuka · Tutup pukul 21.30",
    "latitude": -2.0732427,
    "longitude": 102.2741435
  },
  {
    "name": "ROOFTOP'S CAFE & FOOD COURT",
    "address": "ROOFTOP'S CAFE & FOOD COURT\n4,7\nKedai Kopi · Jl. Lintas Sumatera No.2\nBuka · Tutup pukul 23.30",
    "latitude": -2.0746002,
    "longitude": 102.2847506
  },
  {
    "name": "Amazy Resto Bangko",
    "address": "Amazy Resto Bangko\n3,9\nRestoran ·  · W7HF+7Q3\nBuka · Tutup pukul 21.00",
    "latitude": -2.0718577,
    "longitude": 102.2744307
  },
  {
    "name": "Saung bang dedy",
    "address": "Saung bang dedy\n3,9\nRestoran · X72R+M7H, RT.13/RW.05\nBuka · Tutup pukul 22.00",
    "latitude": -2.0510819,
    "longitude": 102.2919138
  },
  {
    "name": "SAIMEN Bakery & Resto - Gerai Bangko",
    "address": "SAIMEN Bakery & Resto - Gerai Bangko\n4,1\nToko Roti ·  · W7QF+X6Q\nBuka · Tutup pukul 22.00",
    "latitude": -2.0600406,
    "longitude": 102.273098
  },
  {
    "name": "KEBAB KAIRO",
    "address": "KEBAB KAIRO\n5,0\nRestoran cepat saji ·  · Jl. Raya Bangko-Kerinci\nBuka · Tutup pukul 23.00",
    "latitude": -2.0760994,
    "longitude": 102.2761052
  },
  {
    "name": "RM Al-Barokah Bangko",
    "address": "RM Al-Barokah Bangko\n4,3\nRestoran Padang · W7PC+2X6\nBuka · Tutup pukul 22.00",
    "latitude": -2.0649518,
    "longitude": 102.272393
  },
  {
    "name": "Steak On You Bangko",
    "address": "Steak On You Bangko\n4,0\nRestoran Steak · Jl. Kesehatan No.5\nBuka · Tutup pukul 22.00",
    "latitude": -2.0642377,
    "longitude": 102.2751239
  },
  {
    "name": "kuliner kampar merangin",
    "address": "kuliner kampar merangin\n2,6\nRestoran · Jl. Teuku Umar Lrg. Kampar, RT.09/RW.03\nBuka · Tutup pukul 21.00",
    "latitude": -2.0613933,
    "longitude": 102.2696509
  },
  {
    "name": "BANGKO FRIED CHICKEN",
    "address": "BANGKO FRIED CHICKEN\n4,8\nRestoran takeaway ayam goreng ·  · Belakang kantor bupati , samping bakso idola, Jl. Sultan Hasanuddin",
    "latitude": -2.0595863,
    "longitude": 102.2759059
  },
  {
    "name": "Dapoer Bunda Lylla",
    "address": "Dapoer Bunda Lylla\n4,3\nKafe ·  · Jl. Teuku Umar Lorong Damai No.117\nBuka · Tutup pukul 21.00",
    "latitude": -2.0663545,
    "longitude": 102.2711079
  },
  {
    "name": "NINETEEN COFFEE",
    "address": "NINETEEN COFFEE\n4,7\nKedai Kopi\nBuka · Tutup pukul 23.00",
    "latitude": -2.0710645,
    "longitude": 102.2744721
  },
  {
    "name": "Bangko merangin",
    "address": "Bangko merangin\n4,5\nKedai Kopi · W7FH+GF6, Jl. Raya Bangko-Kerinci",
    "latitude": -2.076221,
    "longitude": 102.2786561
  },
  {
    "name": "Taman PKK / Pujasera",
    "address": "Taman PKK / Pujasera\n3,9\nPujasera ·  · W7PC+PR5\nBuka · Tutup pukul 00.00",
    "latitude": -2.0632435,
    "longitude": 102.2720977
  },
  {
    "name": "ROSCOE social cafe & roastery",
    "address": "ROSCOE social cafe & roastery\n4,8\nKedai Kopi · W7WJ+XP5\nBuka · Tutup pukul 23.00",
    "latitude": -2.0526185,
    "longitude": 102.2818524
  },
  {
    "name": "Sate Mela Bangko",
    "address": "Sate Mela Bangko\n4,8\nWarung tegal · Sate Mela kabupaten Merangin Bangko Jambi,timbul\nBuka · Tutup pukul 21.30",
    "latitude": -2.0809803,
    "longitude": 102.2650515
  },
  {
    "name": "Mie Ayam & Bakso Tombo Tresno Bangko",
    "address": "Mie Ayam & Bakso Tombo Tresno Bangko\n4,3\nRestoran ·  · Jl. Kesehatan\nBuka · Tutup pukul 22.00",
    "latitude": -2.0634204,
    "longitude": 102.2747054
  },
  {
    "name": "Sate Mela Bangko",
    "address": "Sate Mela Bangko\n4,8\nWarung tegal · Sate Mela kabupaten Merangin Bangko Jambi,timbul\nBuka · Tutup pukul 21.30",
    "latitude": -2.0809803,
    "longitude": 102.2650515
  },
  {
    "name": "Breakthru coffee",
    "address": "Breakthru coffee\n4,6\nKafe seni ·  · Jl. Lintas Sumatera\nBuka · Tutup pukul 00.00",
    "latitude": -2.0746958,
    "longitude": 102.2816979
  },
  {
    "name": "Bangko merangin",
    "address": "Bangko merangin\n4,5\nKedai Kopi · W7FH+GF6, Jl. Raya Bangko-Kerinci",
    "latitude": -2.076221,
    "longitude": 102.2786561
  },
  {
    "name": "Kafe-21 Ps Bawah",
    "address": "Kafe-21 Ps Bawah\n4,2\nKafe · Pasar Bawah\nBuka 24 jam",
    "latitude": -2.074671,
    "longitude": 102.2734572
  },
  {
    "name": "Zarra Coffee",
    "address": "Zarra Coffee\n4,2\nKafe · \nBuka · Tutup pukul 23.00",
    "latitude": -2.0645281,
    "longitude": 102.2723269
  },
  {
    "name": "Mamma Roti Bangko",
    "address": "Mamma Roti Bangko\n5,0\nToko Roti · Jl. Rangkayo Hitam\nBuka · Tutup pukul 22.00",
    "latitude": -2.0664875,
    "longitude": 102.2747741
  },
  {
    "name": "Warung Sarapan Pagi BU HAJJAH",
    "address": "Warung Sarapan Pagi BU HAJJAH\n4,7\nKedai Sarapan ·  · W7MC+FHG\nTutup · Buka Kam pukul 06.00",
    "latitude": -2.0663144,
    "longitude": 102.2714438
  },
  {
    "name": "Green Kandis Bangko",
    "address": "Green Kandis Bangko\n3,8\nRestoran Seafood ·  · W7XR+GMP\nBuka 24 jam",
    "latitude": -2.0511743,
    "longitude": 102.2917173
  },
  {
    "name": "Cincau Bangko",
    "address": "Cincau Bangko\n5,0\nPasokan Pabrik Makanan · W7JC+GJG\nBuka · Tutup pukul 19.00",
    "latitude": -2.0686939,
    "longitude": 102.2715857
  },
  {
    "name": "Mie Gacorin - Bangko",
    "address": "Mie Gacorin - Bangko\n2,7\nRestoran Mie · Jl. Kesehatan\nBuka · Tutup pukul 21.30",
    "latitude": -2.0659542,
    "longitude": 102.2751216
  },
  {
    "name": "Sambal Ijo",
    "address": "Sambal Ijo\n4,5\nRestoran ·  · W7HF+6RC",
    "latitude": -2.0719276,
    "longitude": 102.2745086
  },
  {
    "name": "Pondok Bang R Cafe & Resto",
    "address": "Pondok Bang R Cafe & Resto\n3,8\nRestoran ·  · W7FH+5HX, Jl. Talang Kawo Lingkungan Pulau Kemang\nBuka · Tutup pukul 23.00",
    "latitude": -2.0770234,
    "longitude": 102.278999
  },
  {
    "name": "RM. Makan Perentak",
    "address": "RM. Makan Perentak\n4,1\nRestoran Padang ·  · Jl. Raya Bangko-Kerinci\nBuka · Tutup pukul 22.00",
    "latitude": -2.0751977,
    "longitude": 102.2745005
  },
  {
    "name": "Kopi D'jangkat Sungai Tenang",
    "address": "Kopi D'jangkat Sungai Tenang\n4,5\nKantor Perusahaan ·  · Jl. M. Saidi Sei Ilir\nBuka · Tutup pukul 19.00",
    "latitude": -2.0804578,
    "longitude": 102.2749981
  },
  {
    "name": "Rumah Makan Ampera Baru",
    "address": "Rumah Makan Ampera Baru\n4,4\nRestoran · W7FC+C85, Jl. Raya Bangko-Kerinci\nBuka sekarang",
    "latitude": -2.0764991,
    "longitude": 102.2708561
  },
  {
    "name": "Roti Gembong Gembul Bangko",
    "address": "Roti Gembong Gembul Bangko\n4,5\nToko Roti · Jl. Kesehatan No.5-18\nBuka · Tutup pukul 22.00",
    "latitude": -2.0658687,
    "longitude": 102.2750957
  },
  {
    "name": "Lynix's Cafe",
    "address": "Lynix's Cafe\n4,6\nRestoran · W7PG+24J, Jl. Kesehatan\nBuka · Tutup pukul 21.00",
    "latitude": -2.0649148,
    "longitude": 102.2752764
  },
  {
    "name": "ROOFTOP's BNI BANGKO",
    "address": "ROOFTOP's BNI BANGKO\n5,0\nKafe seni · W7HG+679\nBuka · Tutup pukul 21.00",
    "latitude": -2.0719628,
    "longitude": 102.2756553
  },
  {
    "name": "Yandra sosis frozen bangko",
    "address": "Yandra sosis frozen bangko\n4,0\nToko Daging · W7MC+9JC\nBuka · Tutup pukul 21.15",
    "latitude": -2.06657,
    "longitude": 102.2715019
  },
  {
    "name": "TOKO DAGING INDONESIA (TDI)BANGKO",
    "address": "TOKO DAGING INDONESIA (TDI)BANGKO\n5,0\nToko Daging · W7JF+X8F\nBuka · Tutup pukul 16.30",
    "latitude": -2.0675125,
    "longitude": 102.2732829
  },
  {
    "name": "Sikumbang WaterPark",
    "address": "Sikumbang WaterPark\n4,2\nTujuan Wisata ·  · W7G8+G24, Jl. Kebun Kelapa\nBuka · Tutup pukul 17.00",
    "latitude": -2.0737312,
    "longitude": 102.2650736
  },
  {
    "name": "Es Buah Prasmanan",
    "address": "Es Buah Prasmanan\n5,0\nRestoran · W7FC+C85, Jl. Raya Bangko-Kerinci\nBuka · Tutup pukul 19.00",
    "latitude": -2.0764986,
    "longitude": 102.2708781
  },
  {
    "name": "Pecel Lele Cak Wid",
    "address": "Pecel Lele Cak Wid\n4,4\nRestoran Pecel Lele ·  · W7HG+C48\nBuka · Tutup pukul 01.00",
    "latitude": -2.0714665,
    "longitude": 102.2753307
  },
  {
    "name": "O'Chicken Bangko",
    "address": "O'Chicken Bangko\n4,0\nRestoran ·  · Samping RSUD Kol Abundjani, Jl. Kesehatan\nBuka · Tutup pukul 21.00",
    "latitude": -2.062316,
    "longitude": 102.2749554
  },
  {
    "name": "LESEHAN AULIA",
    "address": "LESEHAN AULIA\n4,3\nRestoran · \nBuka · Tutup pukul 20.00",
    "latitude": -2.045629,
    "longitude": 102.2789077
  },
  {
    "name": "MELATI SWALAYAN",
    "address": "MELATI SWALAYAN\n3,8\nToko Swalayan ·  · W7JF+VF8\nBuka · Tutup pukul 21.30",
    "latitude": -2.0678474,
    "longitude": 102.2737011
  },
  {
    "name": "Rumah makan awak juo (Candra Ajo)",
    "address": "Rumah makan awak juo (Candra Ajo)\n4,6\nRestoran ·  · W7GF+275, Jl. Raya Bangko-Kerinci\nBuka · Tutup pukul 18.00",
    "latitude": -2.0749836,
    "longitude": 102.27325
  },
  {
    "name": "Jif Tea Bangko",
    "address": "Jif Tea Bangko\n5,0\nKedai Teh · Jl. Lintas Sumatera I Bangko\nBuka · Tutup pukul 21.00",
    "latitude": -2.0681562,
    "longitude": 102.2735528
  },
  {
    "name": "BILFOODS BANGKO",
    "address": "BILFOODS BANGKO\n1,0\nDapur Umum · W7GC+5WJ, JL Kerinci\nBuka · Tutup pukul 17.00",
    "latitude": -2.073973,
    "longitude": 102.272389
  }
]